time_index,servos_1,attitude_roll,position_x,servos_7,position_z,magnetometer_1,global_position_longitude,axis_rate_yaw,velocity_z,magnetometer_0,servos_3,servos_5,acceleration_y,tx_controls_4,time_flight,altitude_gps,tx_controls_6,position_y,global_position_latitude,attitude_pitch,battery_0,tx_controls_2,gps_sat_count_0,servos_6,mode_2,tx_controls_3,servos_4,axis_rate_pitch,time_actual,attitude_yaw,altitude_baro,magnetometer_2,tx_controls_1,velocity_y,tx_controls_0,mode_1,mode_0,velocity_x,servos_2,wind_y,acceleration_z,airspeed_0,acceleration_x,axis_rate_roll,servos_0,tx_controls_5,wind_x,tx_controls_7,current_0,rpm_1,current_3,airspeed_1,current_1,rpm_0,current_2,battery_1
0.0,0.0,0.0005235987755982988,0.0,0.0,0.0,-71.0,-105.21264869999999,5.915665636615515e-05,0.0,88.0,0.0,0.0,-0.15467819571495056,0.0,7.354189,1811.3400000000001,0.0,0.0,39.8421441,0.01064650843716541,20.997539520263672,0.0,18.0,0.0,0.0,1500.0,0.0,-7.161926767441608e-06,7.335192999999999,0.0,-1.2341408729553223,498.0,1500.0,0.0,1500.0,0.0,0.0,0.0,0.0,0.0,-9.16388988494873,0.0,1.142864465713501,-9.857953124903849e-05,0.0,0.0,0.0,0.0,-0.7506400942802429,,,,,,,
0.1000160000000001,0.0,0.0005235987755982988,0.0,0.0,0.0,-72.0,-105.21264869999999,-4.2743926487854345e-05,0.0,89.0,0.0,0.0,-0.2099970579147339,0.0,7.454205,1811.3400000000001,0.0,0.0,39.8421441,0.01064650843716541,20.997539520263672,0.0,18.0,0.0,0.0,1500.0,0.0,9.357427488700452e-06,7.414726,0.0,-1.2448725700378418,503.0,1500.0,0.0,1500.0,0.0,0.0,0.0,0.0,0.0,-9.162053108215332,0.0,1.1548006534576416,0.0001266190951459309,0.0,0.0,0.0,0.0,-0.7506400942802429,,,,,,,
0.20001399999999947,0.0,0.0005235987755982988,0.0,0.0,0.0,-72.0,-105.2126481,2.427375522632187e-06,0.0,90.0,0.0,0.0,-0.0949307456612587,0.0,7.554202999999999,1811.21,0.0,0.0,39.8421429,0.01064650843716541,20.992650985717773,0.0,18.0,0.0,0.0,1500.0,0.0,2.540300556571851e-05,7.535698999999999,0.0,-1.2770675420761108,505.0,1500.0,0.0,1500.0,0.0,0.0,0.0,0.0,0.0,-9.152517318725586,0.0,1.155683994293213,-7.578922625881782e-05,0.0,0.0,0.0,0.0,-0.7494221329689026,,,,,,,
0.3001269999999998,0.0,0.0005235987755982988,0.0,0.0,0.0,-73.0,-105.2126481,8.152647527001395e-08,0.0,88.0,0.0,0.0,-0.22636684775352478,0.0,7.654316,1811.21,0.0,0.0,39.8421429,0.01064650843716541,20.996490478515625,0.0,18.0,0.0,0.0,1500.0,0.0,7.353726502702193e-06,7.6146959999999995,0.0,-1.3038966655731201,501.0,1500.0,0.0,1500.0,0.0,0.0,0.0,0.0,0.0,-9.172419548034668,0.0,1.1414697170257568,-3.602047690538242e-05,0.0,0.0,0.0,0.0,-0.7506400942802429,,,,,,,
0.4000159999999999,0.0,0.0005235987755982988,0.0,0.0,0.0,-72.0,-105.2126481,-2.437938349917929e-05,0.0,89.0,0.0,0.0,-0.1247437372803688,0.0,7.754205,1811.05,0.0,0.0,39.8421421,0.01064650843716541,20.993349075317383,0.0,18.0,0.0,0.0,1500.0,0.0,1.1793874881275927e-05,7.735208,0.0,-1.2502384185791016,501.0,1500.0,0.0,1500.0,0.0,0.0,0.0,0.0,0.0,-9.139350891113281,0.0,1.2042014598846436,3.7516619479694265e-05,0.0,0.0,0.0,0.0,-0.7561178803443909,,,,,,,
0.5000330000000002,0.0,0.0005235987755982988,0.0,0.0,0.0,-71.0,-105.2126481,3.281201106942568e-05,0.0,88.0,0.0,0.0,-0.2176114320755005,0.0,7.854222,1811.05,0.0,0.0,39.8421421,0.01064650843716541,20.988113403320312,0.0,18.0,0.0,0.0,1500.0,0.0,-6.687132514164703e-07,7.814207,0.0,-1.1965800523757935,502.0,1500.0,0.0,1500.0,0.0,0.0,0.0,0.0,0.0,-9.187713623046875,0.0,1.1362907886505127,-6.286993256282301e-05,0.0,0.0,0.0,0.0,-0.7533794641494751,,,,,,,
0.600009,0.0,0.0005235987755982988,0.0,0.0,0.0,-72.0,-105.2126481,-1.6486172429541346e-05,0.0,91.0,0.0,0.0,-0.18208357691764832,0.0,7.954198,1810.8700000000001,0.0,0.0,39.842141399999996,0.01064650843716541,20.992650985717773,0.0,18.0,0.0,0.0,1500.0,0.0,1.6666405968737728e-05,7.935185,0.0,-1.207311749458313,503.0,1500.0,0.0,1500.0,0.0,0.0,0.0,0.0,0.0,-9.166854858398438,0.0,1.1648424863815308,9.69649329469193e-05,0.0,0.0,0.0,0.0,-0.7509440779685974,,,,,,,
0.7000829999999993,0.0,0.0005235987755982988,0.0,0.0,0.0,-70.0,-105.2126481,1.011255024418151e-05,0.0,91.0,0.0,0.0,-0.1499129682779312,0.0,8.054272,1810.8700000000001,0.0,0.0,39.842141399999996,0.01064650843716541,20.99230194091797,0.0,18.0,0.0,0.0,1500.0,0.0,8.219343257527234e-06,8.014268999999999,0.0,-1.1375559568405151,498.0,1500.0,0.0,1500.0,0.0,0.0,0.0,0.0,0.0,-9.155474662780762,0.0,1.165917992591858,-5.2652790787381226e-05,0.0,0.0,0.0,0.0,-0.7520090341567993,,,,,,,
0.8000240000000005,0.0,0.0005235987755982988,0.0,0.0,0.0,-69.0,-105.2126478,-1.1037373528688225e-05,0.0,90.0,0.0,0.0,-0.18750767409801483,0.0,8.154213,1810.73,0.0,0.0,39.8421407,0.01064650843716541,20.993349075317383,0.0,18.0,0.0,0.0,1500.0,0.0,7.459748950708749e-06,8.135212,0.0,-1.2180434465408325,504.0,1500.0,0.0,1500.0,0.0,0.0,0.0,0.0,0.0,-9.16999340057373,0.0,1.1403613090515137,5.944451800754161e-06,0.0,0.0,0.0,0.0,-0.7520090341567993,,,,,,,
0.9000179999999993,0.0,0.0005235987755982988,0.0,0.0,0.0,-72.0,-105.2126478,-1.6095395517193772e-05,0.0,92.0,0.0,0.0,-0.13109992444515228,0.0,8.254207,1810.73,0.0,0.0,39.8421407,0.01064650843716541,21.02523422241211,0.0,18.0,0.0,0.0,1500.0,0.0,1.9111482546150214e-05,8.214224999999999,0.0,-1.207311749458313,502.0,1500.0,0.0,1500.0,0.0,0.0,0.0,0.0,0.0,-9.14486312866211,0.0,1.1676641702651978,-5.539129012671206e-06,0.0,0.0,0.0,0.0,-0.7631181478500366,,,,,,,
1.000026,0.0,0.0005235987755982988,0.0,0.0,0.0,-70.0,-105.21264749999999,-6.6121392951580205e-06,0.0,92.0,0.0,0.0,-0.19895118474960327,0.0,8.354215,1810.6000000000001,0.0,0.0,39.8421401,0.01064650843716541,21.03524398803711,0.0,18.0,0.0,0.0,1500.0,0.0,-6.425710196304411e-07,8.335211,0.0,-1.207311749458313,503.0,1500.0,0.0,1500.0,0.0,0.0,0.0,0.0,0.0,-9.164849281311035,0.0,1.1500887870788574,-3.331372898386368e-05,0.0,0.0,0.0,0.0,-0.7725538015365601,,,,,,,
1.1000169999999994,0.0,0.0005235987755982988,0.0,0.0,0.0,-69.0,-105.21264749999999,-2.219699214937521e-05,0.0,92.0,0.0,0.0,-0.14455944299697876,0.0,8.454206,1810.6000000000001,0.0,0.0,39.8421401,0.01064650843716541,21.037338256835938,0.0,18.0,0.0,0.0,1500.0,0.0,1.4523482929613879e-05,8.414743999999999,0.0,-1.1697509288787842,501.0,1500.0,0.0,1500.0,0.0,0.0,0.0,0.0,0.0,-9.16786003112793,0.0,1.152005910873413,3.475400027853152e-05,0.0,0.0,0.0,0.0,-0.764336109161377,,,,,,,
1.200035999999999,0.0,0.0005235987755982988,0.0,0.0,0.0,-73.0,-105.2126468,1.5316743146689165e-05,0.0,92.0,0.0,0.0,-0.16615988314151764,0.0,8.554224999999999,1810.47,0.0,0.0,39.8421393,0.01064650843716541,21.032102584838867,0.0,18.0,0.0,0.0,1500.0,0.0,-4.643456402724554e-06,8.535722999999999,0.0,-1.3038966655731201,504.0,1500.0,0.0,1500.0,0.0,0.0,0.0,0.0,0.0,-9.185420989990234,0.0,1.1552622318267822,-4.3953341182291164e-05,0.0,0.0,0.0,0.0,-0.7684448957443237,,,,,,,
1.3000179999999997,0.0,0.0005235987755982988,0.0,0.0,0.0,-75.0,-105.2126468,-1.8314141905140636e-06,0.0,95.0,0.0,0.0,-0.1705097258090973,0.0,8.654207,1810.47,0.0,0.0,39.8421393,0.01064650843716541,21.036291122436523,0.0,18.0,0.0,0.0,1500.0,0.0,2.728576487909002e-05,8.614723999999999,0.0,-1.0892634391784668,497.0,1500.0,0.0,1500.0,0.0,0.0,0.0,0.0,0.0,-9.159858703613281,0.0,1.1648989915847778,2.922876187620602e-05,0.0,0.0,0.0,0.0,-0.7629661560058594,,,,,,,
1.4000299999999992,0.0,0.0005235987755982988,0.0,0.0,0.0,-72.0,-105.21264599999999,1.2663415101116336e-05,0.0,94.0,0.0,0.0,-0.13045166432857513,0.0,8.754218999999999,1810.33,0.0,0.0,39.8421387,0.01064650843716541,21.027563095092773,0.0,18.0,0.0,0.0,1500.0,0.0,1.5064643756848788e-05,8.735223,0.0,-1.073166012763977,503.0,1500.0,0.0,1500.0,0.0,0.0,0.0,0.0,0.0,-9.162223815917969,0.0,1.1614090204238892,-3.554884430761068e-05,0.0,0.0,0.0,0.0,-0.7707278728485107,,,,,,,
1.500057,0.0,0.0005235987755982988,0.0,0.0,0.0,-74.0,-105.21264599999999,-1.4808068244051983e-05,0.0,94.0,0.0,0.0,-0.19352585077285767,0.0,8.854246,1810.33,0.0,0.0,39.8421387,0.01064650843716541,21.03524398803711,0.0,18.0,0.0,0.0,1500.0,0.0,2.2403639487225027e-05,8.814093,0.0,-1.1590192317962646,500.0,1500.0,0.0,1500.0,0.0,0.0,0.0,0.0,0.0,-9.17485523223877,0.0,1.1484911441802979,-1.6448307233256315e-05,0.0,0.0,0.0,0.0,-0.7670754790306091,,,,,,,
1.6000069999999997,0.0,0.0005235987755982988,0.0,0.0,0.0,-71.0,-105.2126449,-7.039949877090711e-06,0.0,93.0,0.0,0.0,-0.13964563608169556,0.0,8.954196,1810.29,0.0,0.0,39.8421381,0.01064650843716541,21.032102584838867,0.0,18.0,0.0,0.0,1500.0,0.0,8.693575582635671e-06,8.93517,0.0,-1.1482876539230347,504.0,1500.0,0.0,1500.0,0.0,0.0,0.0,0.0,0.0,-9.160181045532227,0.0,1.1713571548461914,6.2170594734182666e-06,0.0,0.0,0.0,0.0,-0.7711843252182007,,,,,,,
1.7000340000000005,0.0,0.0005235987755982988,0.0,0.0,0.0,-73.0,-105.2126449,8.360799308469706e-06,0.0,95.0,0.0,0.0,-0.16916212439537048,0.0,9.054223,1810.29,0.0,0.0,39.8421381,0.01064650843716541,21.03524398803711,0.0,18.0,0.0,0.0,1500.0,0.0,9.836835902429627e-06,9.014228,0.0,-1.3253599405288696,500.0,1500.0,0.0,1500.0,0.0,0.0,0.0,0.0,0.0,-9.175362586975098,0.0,1.1524232625961304,-3.946734352883173e-05,0.0,0.0,0.0,0.0,-0.764336109161377,,,,,,,
1.8000360000000004,0.0,0.0005235987755982988,0.0,0.0,0.0,-73.0,-105.212644,-3.3601618689911213e-07,0.0,92.0,0.0,0.0,-0.16272933781147003,0.0,9.154225,1810.26,0.0,0.0,39.842137699999995,0.01064650843716541,21.033382415771484,0.0,18.0,0.0,0.0,1500.0,0.0,2.119247335475442e-05,9.135175,0.0,-1.2448725700378418,500.0,1500.0,0.0,1500.0,0.0,0.0,0.0,0.0,0.0,-9.183290481567383,0.0,1.1622161865234375,1.2771126508363711e-05,0.0,0.0,0.0,0.0,-0.7707278728485107,,,,,,,
1.9000240000000002,0.0,0.0005235987755982988,0.0,0.0,0.0,-73.0,-105.212644,8.757325285685736e-06,0.0,92.0,0.0,0.0,-0.15137483179569244,0.0,9.254213,1810.26,0.0,0.0,39.842137699999995,0.01064650843716541,21.03524398803711,0.0,18.0,0.0,0.0,1500.0,0.0,2.4058612296501312e-06,9.214212999999999,0.0,-1.207311749458313,502.0,1500.0,0.0,1500.0,0.0,0.0,0.0,0.0,0.0,-9.18143367767334,0.0,1.17244553565979,-3.1148421266296376e-05,0.0,0.0,0.0,0.0,-0.7657055258750916,,,,,,,
2.0000090000000004,0.0,0.0005235987755982988,0.0,0.0,0.0,-70.0,-105.21264339999999,-1.811125497789527e-05,0.0,92.0,0.0,0.0,-0.17540636658668518,0.0,9.354198,1810.23,0.0,0.0,39.8421373,0.01064650843716541,21.030006408691406,0.0,18.0,0.0,0.0,1500.0,0.0,7.782208096712214e-06,9.335198,0.0,-1.1321901082992554,503.0,1500.0,0.0,1500.0,0.0,0.0,0.0,0.0,0.0,-9.173839569091797,0.0,1.1437251567840576,-1.1434977900030048e-06,0.0,0.0,0.0,0.0,-0.7698143720626831,,,,,,,
2.1000309999999995,0.0,0.0005235987755982988,0.0,0.0,0.0,-72.0,-105.21264339999999,-1.9348209105174292e-05,0.0,92.0,0.0,0.0,-0.1446727216243744,0.0,9.45422,1810.23,0.0,0.0,39.8421373,0.01064650843716541,21.028961181640625,0.0,18.0,0.0,0.0,1500.0,0.0,4.728667317180535e-06,9.414757999999999,0.0,-1.142921805381775,507.0,1500.0,0.0,1500.0,0.0,0.0,0.0,0.0,0.0,-9.156875610351562,0.0,1.167252540588379,1.5028053534306451e-05,0.0,0.0,0.0,0.0,-0.764336109161377,,,,,,,
2.2000279999999997,0.0,0.0005235987755982988,0.0,0.0,0.0,-73.0,-105.2126428,-2.8861702523218565e-06,0.0,94.0,0.0,0.0,-0.16199782490730286,0.0,9.554217,1810.2,0.0,0.0,39.8421368,0.01064650843716541,21.0345458984375,0.0,18.0,0.0,0.0,1500.0,0.0,1.491890155911713e-05,9.535718,0.0,-1.2287750244140625,512.0,1500.0,0.0,1500.0,0.0,0.0,0.0,0.0,0.0,-9.177393913269043,0.0,1.1539967060089111,-2.6391379433870058e-05,0.0,0.0,0.0,0.0,-0.7692059278488159,,,,,,,
2.300025999999999,0.0,0.0005235987755982988,0.0,0.0,0.0,-73.0,-105.2126428,-7.325543995454311e-06,0.0,94.0,0.0,0.0,-0.17203649878501892,0.0,9.654214999999999,1810.2,0.0,0.0,39.8421368,0.01064650843716541,21.03838539123535,0.0,18.0,0.0,0.0,1500.0,0.0,3.2271706150858676e-06,9.614773,0.0,-1.0946292877197266,508.0,1500.0,0.0,1500.0,0.0,0.0,0.0,0.0,0.0,-9.17780590057373,0.0,1.149819016456604,2.0171374821901934e-05,0.0,0.0,0.0,0.0,-0.764336109161377,,,,,,,
2.400008999999999,0.0,0.0005235987755982988,0.0,0.0,0.0,-70.0,-105.2126425,1.1031453790043856e-05,0.0,90.0,0.0,0.0,-0.15828968584537506,0.0,9.754197999999999,1810.18,0.0,0.0,39.842136499999995,0.01064650843716541,21.032102584838867,0.0,18.0,0.0,0.0,1500.0,0.0,2.885869033425674e-06,9.735189,0.0,-1.0999951362609863,507.0,1500.0,0.0,1500.0,0.0,0.0,0.0,0.0,0.0,-9.192456245422363,0.0,1.1723177433013916,-2.9745161799034e-05,0.0,0.0,0.0,0.0,-0.7711843252182007,,,,,,,
2.500026,0.0,0.0005235987755982988,0.0,0.0,0.0,-70.0,-105.2126425,-3.309829042268127e-06,0.0,93.0,0.0,0.0,-0.16825303435325623,0.0,9.854215,1810.18,0.0,0.0,39.842136499999995,0.01064650843716541,21.03838539123535,0.0,18.0,0.0,0.0,1500.0,0.0,2.1203737823964777e-05,9.8142,0.0,-1.1375559568405151,503.0,1500.0,0.0,1500.0,0.0,0.0,0.0,0.0,0.0,-9.175715446472168,0.0,1.1682896614074707,3.824975579554234e-06,0.0,0.0,0.0,0.0,-0.7684448957443237,,,,,,,
2.6000359999999993,0.0,0.0005235987755982988,0.0,0.0,0.0,-74.0,-105.21264199999999,3.4655193369176348e-06,0.0,94.0,0.0,0.0,-0.15419557690620422,0.0,9.954225,1810.1200000000001,0.0,0.0,39.8421362,0.01064650843716541,21.039201736450195,0.0,18.0,0.0,0.0,1500.0,0.0,8.89143017327989e-06,9.93521,0.0,-1.2341408729553223,509.0,1500.0,0.0,1500.0,0.0,0.0,0.0,0.0,0.0,-9.174215316772461,0.0,1.1636313199996948,-7.467692900653769e-06,0.0,0.0,0.0,0.0,-0.7707278728485107,,,,,,,
2.700011,0.0,0.0005235987755982988,0.0,0.0,0.0,-74.0,-105.21264199999999,-1.2012573006803704e-05,0.0,95.0,0.0,0.0,-0.17130902409553528,0.0,10.0542,1810.1200000000001,0.0,0.0,39.8421362,0.01064650843716541,21.03838539123535,0.0,18.0,0.0,0.0,1500.0,0.0,1.0780404856657619e-05,10.014757999999999,0.0,-1.2448725700378418,504.0,1500.0,0.0,1500.0,0.0,0.0,0.0,0.0,0.0,-9.179084777832031,0.0,1.157273530960083,-7.972028828904458e-06,0.0,0.0,0.0,0.0,-0.7670754790306091,,,,,,,
2.8000799999999995,0.0,0.0005235987755982988,0.0,0.0,0.0,-73.0,-105.21264149999999,-1.5039871677373197e-05,0.0,95.0,0.0,0.0,-0.15959292650222778,0.0,10.154269,1810.08,0.0,0.0,39.842135999999996,0.01064650843716541,21.03838539123535,0.0,18.0,0.0,0.0,1500.0,0.0,-1.0866307863434085e-06,10.135326,0.0,-1.2019459009170532,500.0,1500.0,0.0,1500.0,0.0,0.0,0.0,0.0,0.0,-9.168535232543945,0.0,1.1584419012069702,9.725588093908689e-06,0.0,0.0,0.0,0.0,-0.7711843252182007,,,,,,,
2.90001,0.0,0.0005235987755982988,0.0,0.0,0.0,-75.0,-105.21264149999999,5.785650011419045e-06,0.0,95.0,0.0,0.0,-0.17720265686511993,0.0,10.254199,1810.08,0.0,0.0,39.842135999999996,0.01064650843716541,21.036291122436523,0.0,18.0,0.0,0.0,1500.0,0.0,4.477076900921901e-06,10.214198,0.0,-0.9551177024841309,504.0,1500.0,0.0,1500.0,0.0,0.0,0.0,0.0,0.0,-9.181523323059082,0.0,1.1673773527145386,-2.6644289524146032e-05,0.0,0.0,0.0,0.0,-0.7684448957443237,,,,,,,
3.0000350000000005,0.0,0.0005235987755982988,0.0,0.0,0.0,-74.0,-105.2126411,-1.990561949815773e-05,0.0,97.0,0.0,0.0,-0.17319007217884064,0.0,10.354224,1810.04,0.0,0.0,39.8421357,0.01064650843716541,21.03687286376953,0.0,18.0,0.0,0.0,1500.0,0.0,2.7460658767297075e-05,10.335172,0.0,-1.0248734951019287,504.0,1500.0,0.0,1500.0,0.0,0.0,0.0,0.0,0.0,-9.163956642150879,0.0,1.1644763946533203,-6.082530949130325e-06,0.0,0.0,0.0,0.0,-0.7676844596862793,,,,,,,
3.1000060000000005,0.0,0.0005235987755982988,0.0,0.0,0.0,-72.0,-105.2126411,-5.590212283351615e-06,0.0,98.0,0.0,0.0,-0.14527972042560577,0.0,10.454195,1810.04,0.0,0.0,39.8421357,0.01064650843716541,21.037338256835938,0.0,18.0,0.0,0.0,1500.0,0.0,1.351995617631559e-06,10.414742,0.0,-1.019507646560669,504.0,1500.0,0.0,1500.0,0.0,0.0,0.0,0.0,0.0,-9.154192924499512,0.0,1.1518011093139648,-2.3362102776147555e-05,0.0,0.0,0.0,0.0,-0.7684448957443237,,,,,,,
3.200127,0.0,0.0005235987755982988,0.0,0.0,0.0,-73.0,-105.21264079999999,8.432129009796807e-08,0.0,99.0,0.0,0.0,-0.1782907098531723,0.0,10.554316,1810.03,0.0,0.0,39.8421354,0.01064650843716541,21.037338256835938,0.0,18.0,0.0,0.0,1500.0,0.0,1.6048646141323192e-05,10.535741,0.0,-0.9873126745223999,504.0,1500.0,0.0,1500.0,0.0,0.0,0.0,0.0,0.0,-9.167976379394531,0.0,1.15008544921875,-7.868087991414861e-06,0.0,0.0,0.0,0.0,-0.7684448957443237,,,,,,,
3.299999999999999,0.0,0.0005235987755982988,0.0,0.0,0.0,-72.0,-105.21264079999999,-1.4985104189738298e-06,0.0,95.0,0.0,0.0,-0.16491644084453583,0.0,10.654188999999999,1810.03,0.0,0.0,39.8421354,0.01064650843716541,21.037338256835938,0.0,18.0,0.0,0.0,1500.0,0.0,1.0927029884813502e-05,10.61474,0.0,-0.9819468855857849,498.0,1500.0,0.0,1500.0,0.0,0.0,0.0,0.0,0.0,-9.159042358398438,0.0,1.1614322662353516,-1.2537777867821273e-05,0.0,0.0,0.0,0.0,-0.7711843252182007,,,,,,,
3.4000369999999993,0.0,0.0005235987755982988,0.0,0.0,0.0,-68.0,-105.21264049999999,8.018366759065245e-06,0.0,94.0,0.0,0.0,-0.17241427302360535,0.0,10.754226,1810.02,0.0,0.0,39.8421351,0.01064650843716541,21.035709381103516,0.0,18.0,0.0,0.0,1500.0,0.0,5.521526755657023e-06,10.735183,0.0,-1.073166012763977,501.0,1500.0,0.0,1500.0,0.0,0.0,0.0,0.0,0.0,-9.168822288513184,0.0,1.1747394800186157,-2.283533035777144e-05,0.0,0.0,0.0,0.0,-0.7737717628479004,,,,,,,
3.499993,0.0,0.0005235987755982988,0.0,0.0,0.0,-71.0,-105.21264049999999,-4.5170409782845475e-06,0.0,92.0,0.0,0.0,-0.16144363582134247,0.0,10.854182,1810.02,0.0,0.0,39.8421351,0.01064650843716541,21.03314781188965,0.0,18.0,0.0,0.0,1500.0,0.0,8.083892790074754e-06,10.814193,0.0,-1.0463368892669678,503.0,1500.0,0.0,1500.0,0.0,0.0,0.0,0.0,0.0,-9.164041519165039,0.0,1.1509257555007935,3.1303165489792194e-06,0.0,0.0,0.0,0.0,-0.7766625881195068,,,,,,,
3.6001569999999994,0.0,0.0005235987755982988,0.0,0.0,0.0,-72.0,-105.21264029999999,-3.938666918429448e-06,0.0,94.0,0.0,0.0,-0.15614256262779236,0.0,10.954346,1810.01,0.0,0.0,39.8421349,0.01064650843716541,21.03524398803711,0.0,18.0,0.0,0.0,1500.0,0.0,6.67395571132972e-06,10.936572,0.0,-1.0034102201461792,500.0,1500.0,0.0,1500.0,0.0,0.0,0.0,0.0,0.0,-9.1715087890625,0.0,1.1771305799484253,-1.504860245374349e-05,0.0,0.0,0.0,0.0,-0.7698143720626831,,,,,,,
3.7000460000000004,0.0,0.0005235987755982988,0.0,0.0,0.0,-73.0,-105.21264029999999,-9.595769543587847e-08,0.0,91.0,0.0,0.0,-0.17384213209152222,0.0,11.054235,1810.01,0.0,0.0,39.8421349,0.01064650843716541,21.036291122436523,0.0,18.0,0.0,0.0,1500.0,0.0,9.50130344996571e-06,11.014236,0.0,-1.083897590637207,496.0,1500.0,0.0,1500.0,0.0,0.0,0.0,0.0,0.0,-9.173065185546875,0.0,1.1428756713867188,-7.236230306926719e-06,0.0,0.0,0.0,0.0,-0.7739237546920776,,,,,,,
3.8001570000000005,0.0,0.0005235987755982988,0.0,0.0,0.0,-72.0,-105.2126397,-1.5518338337588844e-05,0.0,95.0,0.0,0.0,-0.17758259177207947,0.0,11.154346,1810.0,0.0,0.0,39.8421346,0.01064650843716541,21.039201736450195,0.0,18.0,0.0,0.0,1500.0,0.0,1.7217493304689664e-05,11.135216999999999,0.0,-1.051702618598938,501.0,1500.0,0.0,1500.0,0.0,0.0,0.0,0.0,0.0,-9.176170349121094,0.0,1.1605361700057983,1.1984029341655004e-06,0.0,0.0,0.0,0.0,-0.7722492814064026,,,,,,,
3.9001669999999997,0.0,0.0005235987755982988,0.0,0.0,0.0,-68.0,-105.2126397,4.428806191840415e-06,0.0,94.0,0.0,0.0,-0.16389979422092438,0.0,11.254356,1810.0,0.0,0.0,39.8421346,0.01064650843716541,21.040481567382812,0.0,18.0,0.0,0.0,1500.0,0.0,1.4726522752116833e-05,11.214372,0.0,-0.7458503842353821,498.0,1500.0,0.0,1500.0,0.0,0.0,0.0,0.0,0.0,-9.168862342834473,0.0,1.1465210914611816,-3.0872555553159904e-05,0.0,0.0,0.0,0.0,-0.7684448957443237,,,,,,,
4.000171999999999,0.0,0.0005235987755982988,0.0,0.0,0.0,-75.0,-105.212639,-5.346502322329701e-06,0.0,94.0,0.0,0.0,-0.16455678641796112,0.0,11.354360999999999,1810.02,0.0,0.0,39.8421343,0.01064650843716541,21.0394344329834,0.0,18.0,0.0,0.0,1500.0,0.0,1.9391426143432642e-05,11.335224,0.0,-0.885361909866333,499.0,1500.0,0.0,1500.0,0.0,0.0,0.0,0.0,0.0,-9.179206848144531,0.0,1.1547693014144897,-1.0604813034616913e-05,0.0,0.0,0.0,0.0,-0.7684448957443237,,,,,,,
4.100152,0.0,0.0005235987755982988,0.0,0.0,0.0,-72.0,-105.212639,-7.4539622969729805e-06,0.0,93.0,0.0,0.0,-0.16838233172893524,0.0,11.454341,1810.02,0.0,0.0,39.8421343,0.01064650843716541,21.0394344329834,0.0,18.0,0.0,0.0,1500.0,0.0,-1.0469728804641916e-06,11.414747,0.0,-0.853166937828064,504.0,1500.0,0.0,1500.0,0.0,0.0,0.0,0.0,0.0,-9.159086227416992,0.0,1.1531378030776978,-2.917134437342545e-05,0.0,0.0,0.0,0.0,-0.764336109161377,,,,,,,
4.200141,0.0,0.0005235987755982988,0.0,0.0,0.0,-74.0,-105.21263839999999,-3.140278868711729e-06,0.0,94.0,0.0,0.0,-0.1659783273935318,0.0,11.55433,1810.05,0.0,0.0,39.842134,0.01064650843716541,21.039201736450195,0.0,18.0,0.0,0.0,1500.0,0.0,1.0004946523959413e-05,11.535749,0.0,-1.0892634391784668,503.0,1500.0,0.0,1500.0,0.0,0.0,0.0,0.0,0.0,-9.167503356933594,0.0,1.159470796585083,-4.985117872391401e-06,0.0,0.0,0.0,0.0,-0.7676844596862793,,,,,,,
4.300148999999999,0.0,0.0005235987755982988,0.0,0.0,0.0,-71.0,-105.21263839999999,-3.0458856035200146e-06,0.0,93.0,0.0,0.0,-0.1643161177635193,0.0,11.654338,1810.05,0.0,0.0,39.842134,0.01064650843716541,21.04257583618164,0.0,18.0,0.0,0.0,1500.0,0.0,5.310696386424304e-06,11.614747,0.0,-0.9336544275283813,504.0,1500.0,0.0,1500.0,0.0,0.0,0.0,0.0,0.0,-9.165225982666016,0.0,1.162719964981079,-1.354723299504426e-05,0.0,0.0,0.0,0.0,-0.7657055258750916,,,,,,,
4.400172999999999,0.0,0.0005235987755982988,0.0,0.0,0.0,-69.0,-105.212638,-1.5831894509573104e-05,0.0,95.0,0.0,0.0,-0.18170177936553955,0.0,11.754361999999999,1810.07,0.0,0.0,39.8421336,0.01064650843716541,21.03838539123535,0.0,18.0,0.0,0.0,1500.0,0.0,1.0726457720653977e-05,11.735225999999999,0.0,-1.1321901082992554,498.0,1500.0,0.0,1500.0,0.0,0.0,0.0,0.0,0.0,-9.169941902160645,0.0,1.1555031538009644,-1.1608663356948707e-05,0.0,0.0,0.0,0.0,-0.7698143720626831,,,,,,,
4.500145999999999,0.0,0.0005235987755982988,0.0,0.0,0.0,-71.0,-105.212638,2.287038438934113e-07,0.0,95.0,0.0,0.0,-0.1586364358663559,0.0,11.854334999999999,1810.07,0.0,0.0,39.8421336,0.01064650843716541,21.04257583618164,0.0,18.0,0.0,0.0,1500.0,0.0,1.5872387878824152e-05,11.814378,0.0,-0.9336544275283813,499.0,1500.0,0.0,1500.0,0.0,0.0,0.0,0.0,0.0,-9.164382934570312,0.0,1.1681832075119019,-1.586061037237072e-05,0.0,0.0,0.0,0.0,-0.7698143720626831,,,,,,,
4.600992,0.0,0.020245819323134222,0.0,0.0,0.0,-73.0,-105.2126375,1.6316684734777919e-06,0.0,94.0,0.0,0.0,-0.1927991807460785,0.0,11.955181,1810.06,0.0,0.0,39.842133499999996,0.136659280431156,21.043855667114258,0.0,18.0,0.0,0.0,1500.0,0.0,1.527349258322483e-05,11.937740999999999,6.283185307179586,-1.0248734951019287,499.0,1500.0,0.0,1500.0,0.0,0.0,0.0,0.0,0.0,-9.16329288482666,0.0,1.144012689590454,-1.4166640637128637e-05,0.0,0.0,0.0,0.0,-0.7661620378494263,,,,,,,
4.7007449999999995,0.0,0.020245819323134222,0.0,0.0,0.0019220677204430103,-73.0,-105.2126375,-6.421036477815752e-06,0.05051126331090927,94.0,0.0,0.0,-0.16530781984329224,0.0,12.054934,1810.06,0.0,0.0,39.842133499999996,0.136659280431156,21.043622970581055,0.0,18.0,0.0,0.0,1500.0,0.0,-2.0782021210156033e-07,12.014952,6.283010774254387,-1.0946292877197266,499.0,1500.0,0.00036839870153926313,1500.0,0.0,0.0,-0.00044438877375796437,0.0,0.0,-9.15609359741211,0.0,1.1667139530181885,-4.381607273435059e-06,0.0,0.0,0.0,0.0,-0.7657055258750916,,,,,,,
4.8042549999999995,0.0,0.020071286397934793,0.0,0.0,0.01329664047807455,-72.0,-105.2126371,5.733608732579782e-06,0.1441580206155777,96.0,0.0,0.0,-0.16434884071350098,0.0,12.158444,1810.06,0.0,0.0,39.8421333,0.13683381335635544,21.041526794433594,0.0,18.0,0.0,0.0,1500.0,0.0,1.0496585542380463e-05,12.135909,6.283010774254387,-1.0785318613052368,498.0,1500.0,0.001927427132613957,1500.0,0.0,0.0,-6.368994945660233e-05,0.0,0.0,-9.181425094604492,0.0,1.1704277992248535,-3.6980220247624306e-05,0.0,0.0,0.0,0.0,-0.7711843252182007,,,,,,,
4.900957,0.0,0.020071286397934793,0.0,0.0,0.16098396480083466,-73.0,-105.2126371,-2.899124696688367e-06,0.21390455961227417,97.0,0.0,0.0,-0.15824653208255768,0.0,12.255146,1810.06,0.0,0.0,39.8421333,0.13683381335635544,21.04467010498047,0.0,18.0,0.0,0.0,1500.0,0.0,2.6116793774052942e-05,12.215729,0.6428047635095115,-1.0356051921844482,497.0,1500.0,0.0027134621050208807,1500.0,0.0,0.0,-0.001181569998152554,0.0,0.0,-9.16734504699707,0.0,1.15070378780365,-1.4126434771916777e-05,0.0,0.0,0.0,0.0,-0.7684448957443237,,,,,,,
5.000995,0.0,0.020071286397934793,0.0,0.0,0.39258697628974915,-70.0,-105.212637,-6.008398591378794e-06,0.30772244930267334,97.0,0.0,0.0,-0.17241404950618744,0.0,12.355184,1810.1000000000001,0.0,0.0,39.8421331,0.13700834628155487,21.043855667114258,0.0,18.0,0.0,0.0,1500.0,0.0,1.9933299127315864e-05,12.336081,0.6428047635095115,-1.0946292877197266,501.0,1500.0,0.00317104859277606,1500.0,0.0,0.0,-0.003100590780377388,0.0,0.0,-9.16522216796875,0.0,1.1650052070617676,-1.819434262930565e-05,0.0,0.0,0.0,0.0,-0.7692059278488159,,,,,,,
5.100961,0.0,0.019896753472735357,0.0,0.0,0.5395698547363281,-72.0,-105.212637,3.964903947814971e-06,0.3663861155509949,95.0,0.0,0.0,-0.16264984011650085,0.0,12.45515,1810.1000000000001,0.0,0.0,39.8421331,0.13700834628155487,21.041526794433594,0.0,18.0,0.0,0.0,1500.0,0.0,1.5343178279564592e-05,12.416177999999999,0.6424556976591127,-0.8585327863693237,500.0,1500.0,0.0034120548516511917,1500.0,0.0,0.0,-0.004570312798023224,0.0,0.0,-9.173460006713867,0.0,1.1373155117034912,-2.034483830132037e-05,0.0,0.0,0.0,0.0,-0.764336109161377,,,,,,,
5.2009989999999995,0.0,0.019547687622336492,0.0,0.0,0.7364683747291565,-70.0,-105.2126368,-4.556254294216238e-06,0.45046645402908325,96.0,0.0,0.0,-0.1583111584186554,0.0,12.555188,1810.0900000000001,0.0,0.0,39.842133,0.13718287920675432,21.043622970581055,0.0,18.0,0.0,0.0,1500.0,0.0,-2.2054729461658476e-06,12.53674,0.6412339671827167,-0.879996120929718,497.0,1500.0,0.0028056218288838863,1500.0,0.0,0.0,-0.007535633631050587,0.0,0.0,-9.162084579467773,0.0,1.1620872020721436,-1.5074419910096557e-05,0.0,0.0,0.0,0.0,-0.7684448957443237,,,,,,,
5.300765999999999,0.0,0.019198621771937627,0.0,0.0,0.849450409412384,-72.0,-105.2126368,3.819578275369771e-06,0.503971517086029,95.0,0.0,0.0,-0.15688079595565796,0.0,12.654955,1810.0900000000001,0.0,0.0,39.842133,0.13735741213195374,21.045717239379883,0.0,18.0,0.0,0.0,1500.0,0.0,8.674933536278342e-06,12.615941,0.6398377037811213,-0.9712151885032654,498.0,1500.0,0.0019705346785485744,1500.0,0.0,0.0,-0.00830788817256689,0.0,0.0,-9.186150550842285,0.0,1.1533277034759521,-3.9989633728759424e-05,0.0,0.0,0.0,0.0,-0.7670754790306091,,,,,,,
5.400769,0.0,0.01884955592153876,0.0,0.0,1.0008516311645508,-71.0,-105.2126366,-3.3589274683670315e-06,0.5819099545478821,92.0,0.0,0.0,-0.17584872245788574,0.0,12.754958,1810.13,0.0,0.0,39.842132899999996,0.13753194505715316,21.035709381103516,0.0,18.0,0.0,0.0,1500.0,0.0,4.021124702333474e-06,12.735901,0.6375687757535285,-0.9604835510253906,498.0,1500.0,0.001166102709248662,1500.0,0.0,0.0,-0.008982005529105663,0.0,0.0,-9.157928466796875,0.0,1.1532492637634277,-3.958177826375174e-06,0.0,0.0,0.0,0.0,-0.7676844596862793,,,,,,,
5.50075,0.0,0.018500490071139894,0.0,0.0,1.0917117595672607,-74.0,-105.2126366,1.051961786684859e-06,0.6317021250724792,89.0,0.0,0.0,-0.15485543012619019,0.0,12.854939,1810.13,0.0,0.0,39.842132899999996,0.1377064779823526,21.037338256835938,0.0,18.0,0.0,0.0,1500.0,0.0,2.0391592756767615e-05,12.815603,0.6361725123519332,-0.9873126745223999,497.0,1500.0,-0.001048607169650495,1500.0,0.0,0.0,-0.009144934825599194,0.0,0.0,-9.174667358398438,0.0,1.1585466861724854,-2.9430049244759855e-05,0.0,0.0,0.0,0.0,-0.7711843252182007,,,,,,,
5.600956999999999,0.0,0.01815142422074103,0.0,0.0,1.2164533138275146,-71.0,-105.21263619999999,6.241698975942924e-06,0.7050437331199646,92.0,0.0,0.0,-0.17216621339321136,0.0,12.955146,1810.17,0.0,0.0,39.8421326,0.13788101090755203,21.041526794433594,0.0,18.0,0.0,0.0,1500.0,0.0,1.8737383915821616e-05,12.935932,0.6344271830999388,-0.8585327863693237,499.0,1500.0,-0.0037768101319670677,1500.0,0.0,0.0,-0.010445725172758102,0.0,0.0,-9.165178298950195,0.0,1.1585403680801392,-2.6423553472460606e-05,0.0,0.0,0.0,0.0,-0.7698143720626831,,,,,,,
5.70074,0.0,0.01780235837034216,0.0,0.0,1.291686773300171,-72.0,-105.21263619999999,-9.79604080632473e-06,0.750979483127594,92.0,0.0,0.0,-0.1497766524553299,0.0,13.054929,1810.17,0.0,0.0,39.8421326,0.13805554383275148,21.043622970581055,0.0,18.0,0.0,0.0,1500.0,0.0,2.0855992037369643e-05,13.015644,0.6335545184739417,-0.8209719657897949,497.0,1500.0,-0.005218425299972296,1500.0,0.0,0.0,-0.01057499647140503,0.0,0.0,-9.16830825805664,0.0,1.153702974319458,-8.456735241094314e-06,0.0,0.0,0.0,0.0,-0.7657055258750916,,,,,,,
5.800855,0.0,0.01780235837034216,0.0,0.0,1.3925418853759766,-71.0,-105.21263599999999,-3.341083423503637e-06,0.8165144324302673,93.0,0.0,0.0,-0.16413986682891846,0.0,13.155044,1810.2,0.0,0.0,39.8421325,0.13805554383275148,21.041526794433594,0.0,18.0,0.0,0.0,1500.0,0.0,1.2221211538705856e-05,13.13595,0.6335545184739417,-0.853166937828064,503.0,1500.0,-0.007199529092758894,1500.0,0.0,0.0,-0.011588281951844692,0.0,0.0,-9.161788940429688,0.0,1.1595779657363892,-3.902056428376221e-05,0.0,0.0,0.0,0.0,-0.7661620378494263,,,,,,,
5.900753999999999,0.0,0.017627825445142728,0.0,0.0,1.4535653591156006,-71.0,-105.21263599999999,-3.337561499023568e-06,0.8579839468002319,94.0,0.0,0.0,-0.18206563591957092,0.0,13.254942999999999,1810.2,0.0,0.0,39.8421325,0.13805554383275148,21.04676628112793,0.0,18.0,0.0,0.0,1500.0,0.0,1.2830345229029379e-05,13.21566,0.6337290513991412,-0.9658493995666504,496.0,1500.0,-0.007807112764567137,1500.0,0.0,0.0,-0.012275993824005127,0.0,0.0,-9.177245140075684,0.0,1.1530944108963013,-5.407296219718913e-06,0.0,0.0,0.0,0.0,-0.7698143720626831,,,,,,,
6.000873,0.0,0.017453292519943295,0.0,0.0,1.5411345958709717,-74.0,-105.2126358,1.0233062184622474e-05,0.9183157086372375,94.0,0.0,0.0,-0.16661624610424042,0.0,13.355062,1810.22,0.0,0.0,39.842132299999996,0.13805554383275148,21.041526794433594,0.0,18.0,0.0,0.0,1500.0,0.0,1.3558653915215872e-05,13.335941,0.6340781172495399,-0.8317036628723145,502.0,1500.0,-0.010574305430054665,1500.0,0.0,0.0,-0.01218605600297451,0.0,0.0,-9.168105125427246,0.0,1.1512008905410767,-3.680282517586784e-05,0.0,0.0,0.0,0.0,-0.7711843252182007,,,,,,,
6.100778,0.0,0.017453292519943295,0.0,0.0,1.5968337059020996,-70.0,-105.2126358,1.6882792124946829e-06,0.9565162658691406,95.0,0.0,0.0,-0.16335225105285645,0.0,13.454967,1810.22,0.0,0.0,39.842132299999996,0.1382300767579509,21.041526794433594,0.0,18.0,0.0,0.0,1500.0,0.0,1.997569530598529e-05,13.415904,0.6342526501747394,-0.8907277584075928,500.0,1500.0,-0.011668238788843155,1500.0,0.0,0.0,-0.01265129167586565,0.0,0.0,-9.168100357055664,0.0,1.1606688499450684,-2.947940850712046e-05,0.0,0.0,0.0,0.0,-0.7657055258750916,,,,,,,
6.200875,0.0,0.017278759594743863,0.0,0.0,1.6761943101882935,-71.0,-105.21263569999999,-8.60147269856181e-06,1.0102754831314087,95.0,0.0,0.0,-0.15521854162216187,0.0,13.555064,1810.23,0.0,0.0,39.842132199999995,0.1382300767579509,21.038036346435547,0.0,18.0,0.0,0.0,1500.0,0.0,1.8167469636921776e-05,13.536613,0.6344271830999388,-0.9819468855857849,501.0,1500.0,-0.014106467366218567,1500.0,0.0,0.0,-0.012323220260441303,0.0,0.0,-9.173300743103027,0.0,1.1562577486038208,-1.317832772389706e-05,0.0,0.0,0.0,0.0,-0.7692059278488159,,,,,,,
6.30078,0.0,0.01710422666954443,0.0,0.0,1.728412389755249,-68.0,-105.21263569999999,1.1866157765164051e-06,1.045110821723938,96.0,0.0,0.0,-0.21410086750984192,0.0,13.654969,1810.23,0.0,0.0,39.842132199999995,0.1382300767579509,21.04257583618164,0.0,18.0,0.0,0.0,1500.0,0.0,7.935498037409092e-06,13.61592,0.6346017160251383,-0.7941428422927856,500.0,1500.0,-0.01587740331888199,1500.0,0.0,0.0,-0.01238576415926218,0.0,0.0,-9.174238204956055,0.0,1.1357892751693726,-1.9530202209727123e-05,0.0,0.0,0.0,0.0,-0.764336109161377,,,,,,,
6.40086,0.0,0.0153588974175501,0.0,0.0,1.8046314716339111,-70.0,-105.2126356,8.772313490957026e-05,1.093591570854187,96.0,0.0,0.0,0.2110222578048706,0.0,13.755049,1810.19,0.0,0.0,39.8421321,0.1382300767579509,21.03838539123535,0.0,18.0,0.0,0.0,1500.0,0.0,7.52278639551897e-05,13.735949999999999,0.6349507818755371,-0.8209719657897949,502.0,1500.0,-0.025428524240851402,1500.0,0.0,0.0,-0.0066877142526209354,0.0,0.0,-9.145809173583984,0.0,1.2075039148330688,-0.00024569270265868166,0.0,0.0,0.0,0.0,-0.7711843252182007,,,,,,,
6.500864999999999,0.0,0.016231562043547264,0.0,0.0,1.8510801792144775,-70.0,-105.2126356,-0.00011556763493523773,1.1263771057128906,95.0,0.0,0.0,-0.5364289879798889,0.0,13.855053999999999,1810.19,0.0,0.0,39.8421321,0.13840460968315035,21.04257583618164,0.0,18.0,0.0,0.0,1500.0,0.0,-3.182225555642149e-05,13.815653,0.6342526501747394,-0.9551177024841309,502.0,1500.0,-0.010509401559829712,1500.0,0.0,0.0,-0.018912773579359055,0.0,0.0,-9.091538429260254,0.0,1.1319458484649658,0.00028314243020920144,0.0,0.0,0.0,0.0,-0.7670754790306091,,,,,,,
6.600894,0.0,0.016057029118347832,0.0,0.0,1.9191374778747559,-73.0,-105.21263549999999,0.00012072073136016565,1.1665788888931274,95.0,0.0,0.0,-0.662906289100647,0.0,13.955083,1810.19,0.0,0.0,39.842132,0.1387536755335492,21.04269027709961,0.0,18.0,0.0,0.0,1500.0,0.0,-0.0002176534719820184,13.935948,0.6326818538479445,-0.847801148891449,502.0,1500.0,-0.01154501736164093,1500.0,0.0,0.0,0.005452295299619436,0.0,0.0,-9.283668518066406,0.0,1.891203761100769,2.1422431885831222e-05,0.0,0.0,0.0,0.0,-0.7661620378494263,,,,,,,
6.700856999999999,0.0,0.016755160819145562,0.0,0.0,1.9620712995529175,-72.0,-105.21263549999999,0.0010547082142274473,1.1630756855010986,98.0,0.0,0.0,-0.13556747138500214,0.0,14.055045999999999,1810.19,0.0,0.0,39.842132,0.1350884841043611,21.043622970581055,0.0,18.0,0.0,0.0,1500.0,0.0,-0.0021198659547672282,14.015654,0.6339035843243405,-0.7082895636558533,503.0,1500.0,0.022917110472917557,1500.0,0.0,0.0,0.07025755196809769,0.0,0.0,-9.176241874694824,0.0,2.7195186614990234,-9.47294397026685e-05,0.0,0.0,0.0,0.0,-0.7629661560058594,,,,,,,
6.800989999999999,0.0,0.017976891295541596,0.0,0.0,2.0168004035949707,-75.0,-105.21263549999999,0.00046848013934808024,1.1823363304138184,105.0,0.0,0.0,-0.49690455198287964,0.0,14.155178999999999,1810.2,0.0,0.0,39.8421318,0.11972958668681101,21.04257583618164,0.0,18.0,0.0,0.0,1500.0,0.0,-0.0024681391558392268,14.136056,0.6379178416039275,-0.9980443716049194,500.0,1500.0,0.1486138105392456,1500.0,0.0,0.0,0.2464914321899414,0.0,0.0,-8.938355445861816,0.0,3.0000343322753906,-0.0005234407037238121,0.0,0.0,0.0,0.0,-0.7684448957443237,,,,,,,
6.900763999999999,0.0,0.016057029118347832,0.0,0.0,2.0514190196990967,-74.0,-105.21263549999999,0.000999816602057185,1.213533639907837,109.0,0.0,0.0,0.19718728959560394,0.0,14.254952999999999,1810.2,0.0,0.0,39.8421318,0.10925761117484503,21.045717239379883,0.0,18.0,0.0,0.0,1500.0,0.0,-0.002393357904518992,14.215651,0.6398377037811213,-1.0034102201461792,497.0,1500.0,0.24237525463104248,1500.0,0.0,0.0,0.3941285312175751,0.0,0.0,-8.868748664855957,0.0,2.568315267562866,0.0002642872691970148,0.0,0.0,0.0,0.0,-0.764336109161377,,,,,,,
7.000874999999999,0.0,0.01815142422074103,0.0,0.0,2.1072449684143066,-74.0,-105.2126353,0.0011800289939599966,1.2443379163742065,116.0,0.0,0.0,-0.13780227303504944,0.0,14.355063999999999,1810.2,0.0,0.0,39.842132,0.09459684545809266,21.04269027709961,0.0,18.0,0.0,0.0,1500.0,0.0,-0.0017863699167789417,14.335942,0.6471680866394973,-0.8907277584075928,492.0,1500.0,0.34706979990005493,1500.0,0.0,0.0,0.5418623685836792,0.0,0.0,-8.82360553741455,0.0,2.0051589012145996,-0.00047127736875280166,0.0,0.0,0.0,0.0,-0.7676844596862793,,,,,,,
7.100811,0.0,0.017976891295541596,0.0,0.0,2.144411325454712,-73.0,-105.2126353,0.0009290585705106788,1.280662178993225,118.0,0.0,0.0,-0.43550413846969604,0.0,14.455,1810.2,0.0,0.0,39.842132,0.08621926504851989,21.04781150817871,0.0,18.0,0.0,0.0,1500.0,0.0,-0.0008427608379589651,14.415911999999999,0.651007810993885,-0.847801148891449,492.0,1500.0,0.41379237174987793,1500.0,0.0,0.0,0.5877673625946045,0.0,0.0,-9.721356391906738,0.0,1.1274484395980835,0.0013068486470472723,0.0,0.0,0.0,0.0,-0.764336109161377,,,,,,,
7.200870999999999,0.0,0.017278759594743863,0.0,0.0,2.1967740058898926,-77.0,-105.2126349,-0.0005146403087075913,1.3375402688980103,122.0,0.0,0.0,0.2736547291278839,0.0,14.55506,1810.18,0.0,0.0,39.842132899999996,0.0804596785169386,21.04257583618164,0.0,18.0,0.0,0.0,1500.0,0.0,-0.0008716160193216623,14.536646999999999,0.6538003377970759,-0.9497519135475159,492.0,1500.0,0.4471416175365448,1500.0,0.0,0.0,0.6663762927055359,0.0,0.0,-9.492351531982422,0.0,1.3666112422943115,-0.0005740355954581042,0.0,0.0,0.0,0.0,-0.7657055258750916,,,,,,,
7.300746999999999,0.0,0.020245819323134222,0.0,0.0,2.231492757797241,-78.0,-105.2126349,-7.41899804692083e-05,1.342850923538208,122.0,0.0,0.0,-0.4921155571937561,0.0,14.654936,1810.18,0.0,0.0,39.842132899999996,0.07993607974134029,21.04781150817871,0.0,18.0,0.0,0.0,1500.0,0.0,0.0006676914808556252,14.61596,0.6520550085450815,-1.083897590637207,487.0,1500.0,0.4909692108631134,1500.0,0.0,0.0,0.6844860315322876,0.0,0.0,-9.07376480102539,0.0,1.2155925035476685,-0.00025976069182150107,0.0,0.0,0.0,0.0,-0.7657055258750916,,,,,,,
7.400753,0.0,0.015184364492350668,0.0,0.0,2.2884843349456787,-78.0,-105.2126344,-4.7984050283853334e-05,1.386371374130249,121.0,0.0,0.0,0.4471553564071655,0.0,14.754942,1810.19,0.0,0.0,39.8421343,0.08744099552491591,21.038036346435547,0.0,18.0,0.0,0.0,1500.0,0.0,0.0013106164738336517,14.735885,0.6504842122182867,-0.8907277584075928,486.0,1500.0,0.4984104335308075,1500.0,0.0,0.0,0.7324624061584473,0.0,0.0,-9.844474792480469,0.0,1.2907392978668213,0.000629391440298854,0.0,0.0,0.0,0.0,-0.7707278728485107,,,,,,,
7.500688,0.0,0.01832595714594046,0.0,0.0,2.3238847255706787,-75.0,-105.2126344,0.0007698642802548957,1.3791205883026123,119.0,0.0,0.0,-0.8749959468841553,0.0,14.854877,1810.19,0.0,0.0,39.8421343,0.09058258817850572,21.041526794433594,0.0,18.0,0.0,0.0,1500.0,0.0,-0.0008593120980520499,14.815735,0.6515314097694832,-0.8317036628723145,484.0,1500.0,0.5101426839828491,1500.0,0.0,0.0,0.7355935573577881,0.0,0.0,-8.97153377532959,0.0,0.8877271413803101,-0.0015130116452303321,0.0,0.0,0.0,0.0,-0.7711843252182007,,,,,,,
7.600726,0.0,0.01884955592153876,0.0,0.0,2.370532274246216,-80.0,-105.21263379999999,0.0006418690261991208,1.3921483755111694,120.0,0.0,0.0,-0.44572997093200684,0.0,14.954915,1810.15,0.0,0.0,39.842135899999995,0.08621926504851989,21.043622970581055,0.0,18.0,0.0,0.0,1500.0,0.0,-0.0010581672677712293,14.935863999999999,0.6562437987498679,-0.8102403283119202,488.0,1500.0,0.5065796375274658,1500.0,0.0,0.0,0.6962201595306396,0.0,0.0,-8.828831672668457,0.0,0.6647285223007202,0.0010575567432928152,0.0,0.0,0.0,0.0,-0.7657055258750916,,,,,,,
7.700693999999999,0.0,0.017627825445142728,0.0,0.0,2.3972079753875732,-76.0,-105.21263379999999,5.256058631177408e-05,1.4091377258300781,124.0,0.0,0.0,0.16424840688705444,0.0,15.054882999999998,1810.15,0.0,0.0,39.842135899999995,0.08325220532012953,21.04676628112793,0.0,18.0,0.0,0.0,1500.0,0.0,-0.0003971273178198347,15.015562,0.6579891280018623,-0.7243870496749878,488.0,1500.0,0.4725456237792969,1500.0,0.0,0.0,0.6777347326278687,0.0,0.0,-9.458121299743652,0.0,0.6226563453674316,0.0004321429447421978,0.0,0.0,0.0,0.0,-0.764336109161377,,,,,,,
7.800685999999999,0.0,0.01832595714594046,0.0,0.0,2.4305925369262695,-77.0,-105.21263309999999,-4.884603006178686e-05,1.4384745359420776,127.0,0.0,0.0,0.5026912093162537,0.0,15.154874999999999,1810.1100000000001,0.0,0.0,39.8421376,0.08429940287132612,21.045019149780273,0.0,18.0,0.0,0.0,1500.0,0.0,-0.0001065065235353235,15.135855999999999,0.65868725970266,-0.9175569415092468,488.0,1500.0,0.4306025207042694,1500.0,0.0,0.0,0.6489529609680176,0.0,0.0,-9.419632911682129,0.0,0.9225597977638245,-0.0013110224498552937,0.0,0.0,0.0,0.0,-0.7692059278488159,,,,,,,
7.900734,0.0,0.016929693744344994,0.0,0.0,2.451364517211914,-78.0,-105.21263309999999,0.0006920666869109558,1.4483345746994019,129.0,0.0,0.0,-0.2500637173652649,0.0,15.254923,1810.1100000000001,0.0,0.0,39.8421376,0.08621926504851989,21.04781150817871,0.0,18.0,0.0,0.0,1500.0,0.0,8.625746166792048e-05,15.215601,0.6585127267774606,-0.8746302723884583,487.0,1500.0,0.4337002635002136,1500.0,0.0,0.0,0.6097050905227661,0.0,0.0,-8.736188888549805,0.0,0.8055311441421509,0.0007968715685184438,0.0,0.0,0.0,0.0,-0.7670754790306091,,,,,,,
8.000744,0.0,0.018675022996339326,0.0,0.0,2.484163761138916,-80.0,-105.2126323,0.00014783765720643226,1.4439181089401245,130.0,0.0,0.0,-0.008912174962460995,0.0,15.354932999999999,1810.08,0.0,0.0,39.8421394,0.08988445647770797,21.04257583618164,0.0,18.0,0.0,0.0,1500.0,0.0,0.00025837091964619726,15.335873,0.6620033852814492,-0.9712151885032654,488.0,1500.0,0.3694750964641571,1500.0,0.0,0.0,0.5545771718025208,0.0,0.0,-9.465526580810547,0.0,0.5433306694030762,-0.0005473781071619541,0.0,0.0,0.0,0.0,-0.7684448957443237,,,,,,,
8.100648,0.0,0.01710422666954443,0.0,0.0,2.505650758743286,-83.0,-105.2126323,-0.00044650359879409726,1.4763565063476562,128.0,0.0,0.0,-0.16942206025123596,0.0,15.454837,1810.08,0.0,0.0,39.8421394,0.09442231253289324,21.049907684326172,0.0,18.0,0.0,0.0,1500.0,0.0,-0.00030182873796574995,15.415851,0.6609561877302526,-0.6599971055984497,482.0,1500.0,0.3690893054008484,1500.0,0.0,0.0,0.48944491147994995,0.0,0.0,-9.328160285949707,0.0,0.9487531185150146,-2.5058754527868296e-05,0.0,0.0,0.0,0.0,-0.7670754790306091,,,,,,,
8.200657999999999,0.0,0.01884955592153876,0.0,0.0,2.536510944366455,-81.0,-105.2126316,-8.700910897704796e-05,1.477820873260498,129.0,0.0,0.0,0.3339659571647644,0.0,15.554846999999999,1810.06,0.0,0.0,39.8421413,0.0958185759344887,21.045019149780273,0.0,18.0,0.0,0.0,1500.0,0.0,0.0002582866230555408,15.536437,0.657465529226264,-0.6546312570571899,485.0,1500.0,0.3368113338947296,1500.0,0.0,0.0,0.40733644366264343,0.0,0.0,-10.157312393188477,0.0,0.4300658404827118,0.0026794430432085753,0.0,0.0,0.0,0.0,-0.7631181478500366,,,,,,,
8.300694,0.0,0.027052603405912107,0.0,0.0,2.5499277114868164,-77.0,-105.2126316,-0.0002094448598381518,1.4869955778121948,132.0,0.0,0.0,-1.2756234407424927,0.0,15.654883,1810.06,0.0,0.0,39.8421413,0.09878563566287905,21.04781150817871,0.0,18.0,0.0,0.0,1500.0,0.0,-0.00011977024097477513,15.615815999999999,0.6567673975254662,-0.6975578665733337,492.0,1500.0,0.2672452926635742,1500.0,0.0,0.0,0.37957412004470825,0.0,0.0,-8.892635345458984,0.0,1.008915901184082,-0.0021398299101556273,0.0,0.0,0.0,0.0,-0.764336109161377,,,,,,,
8.400616999999999,0.0,0.02356194490192345,0.0,0.0,2.5698118209838867,-79.0,-105.2126309,9.726449793293991e-05,1.508183479309082,132.0,0.0,0.0,-0.10266964137554169,0.0,15.754805999999999,1810.06,0.0,0.0,39.8421434,0.10210176124166828,21.0394344329834,0.0,18.0,0.0,0.0,1500.0,0.0,0.0007833627229001656,15.735819,0.6538003377970759,-0.8263378143310547,494.0,1500.0,0.23082084953784943,1500.0,0.0,0.0,0.32314416766166687,0.0,0.0,-8.062278747558594,0.0,1.182483196258545,0.0011934969428906367,0.0,0.0,0.0,0.0,-0.7725538015365601,,,,,,,
8.500682,0.0,0.024783675378319478,0.0,0.0,2.5841658115386963,-78.0,-105.2126309,-0.00025884641678589504,1.528559684753418,129.0,0.0,0.0,-1.1199299097061157,0.0,15.854871,1810.06,0.0,0.0,39.8421434,0.10663961729685355,21.043622970581055,0.0,18.0,0.0,0.0,1500.0,0.0,0.0010341754762898292,15.815591999999999,0.6531022060962781,-0.7297528982162476,497.0,1500.0,0.195841982960701,1500.0,0.0,0.0,0.30719152092933655,0.0,0.0,-8.789377212524414,0.0,1.0544397830963135,-0.001442712514830647,0.0,0.0,0.0,0.0,-0.7657055258750916,,,,,,,
8.600700999999999,0.0,0.017976891295541596,0.0,0.0,2.605384111404419,-78.0,-105.21262999999999,0.00031998608705412614,1.5026277303695679,125.0,0.0,0.0,0.1898842453956604,0.0,15.954889999999999,1810.0,0.0,0.0,39.8421453,0.11344640137963143,21.04269027709961,0.0,18.0,0.0,0.0,1500.0,0.0,-0.00022390734924301357,15.935842,0.649786080517489,-0.9282885789871216,502.0,1500.0,0.17961415648460388,1500.0,0.0,0.0,0.24651047587394714,0.0,0.0,-9.915878295898438,0.0,0.7117408514022827,0.0023469856120379873,0.0,0.0,0.0,0.0,-0.7646405696868896,,,,,,,
8.700677,0.0,0.02303834612632515,0.0,0.0,2.617133140563965,-74.0,-105.21262999999999,3.7268325708690646e-05,1.4761061668395996,125.0,0.0,0.0,-0.03147755563259125,0.0,16.054866,1810.0,0.0,0.0,39.8421453,0.11239920382843482,21.048858642578125,0.0,18.0,0.0,0.0,1500.0,0.0,-0.0017169097861523613,16.015621,0.6504842122182867,-0.847801148891449,498.0,1500.0,0.11430822312831879,1500.0,0.0,0.0,0.19268693029880524,0.0,0.0,-7.476815700531006,0.0,0.8940318822860718,-0.0006817431666091833,0.0,0.0,0.0,0.0,-0.764336109161377,,,,,,,
8.800734,0.0,0.02076941809873252,0.0,0.0,2.642486572265625,-74.0,-105.21262929999999,-0.00011344739525366518,1.5246268510818481,129.0,0.0,0.0,-0.05687396600842476,0.0,16.154923,1809.96,0.0,0.0,39.842147499999996,0.10245082709206714,21.043622970581055,0.0,18.0,0.0,0.0,1500.0,0.0,-0.0011172769604033785,16.13588,0.6478662183402951,-0.7136553525924683,500.0,1500.0,0.07075363397598267,1500.0,0.0,0.0,0.1311182975769043,0.0,0.0,-9.44698429107666,0.0,0.6880371570587158,0.0006236798180059072,0.0,0.0,0.0,0.0,-0.764336109161377,,,,,,,
8.900709999999998,0.0,0.021467549799530253,0.0,0.0,2.658079147338867,-72.0,-105.21262929999999,1.2820193187108466e-05,1.5444973707199097,131.0,0.0,0.0,0.3228193521499634,0.0,16.254898999999998,1809.96,0.0,0.0,39.842147499999996,0.10105456369047168,21.045717239379883,0.0,18.0,0.0,0.0,1500.0,0.0,0.00016856928698424952,16.215569,0.646993553714298,-0.9229227304458618,497.0,1500.0,0.02161487564444542,1500.0,0.0,0.0,0.10838983207941055,0.0,0.0,-9.515745162963867,0.0,0.19757068157196045,-0.0004001010726727877,0.0,0.0,0.0,0.0,-0.764336109161377,,,,,,,
9.000728999999998,0.0,0.01832595714594046,0.0,0.0,2.6844990253448486,-71.0,-105.2126287,0.00036301658700272493,1.5689740180969238,126.0,0.0,0.0,1.2189905643463135,0.0,16.354917999999998,1809.94,0.0,0.0,39.8421497,0.10978120995044333,21.04269027709961,0.0,18.0,0.0,0.0,1500.0,0.0,0.0014815647581984054,16.335853999999998,0.6475171524898963,-0.8102403283119202,501.0,1500.0,-0.07094217836856842,1500.0,0.0,0.0,0.041603513062000275,0.0,0.0,-9.191415786743164,0.0,0.5367545485496521,-0.0019608399976184326,0.0,0.0,0.0,0.0,-0.7661620378494263,,,,,,,
9.100698,0.0,0.02076941809873252,0.0,0.0,2.704373598098755,-73.0,-105.2126287,0.0010859662872992769,1.5959844589233398,124.0,0.0,0.0,-0.6687353849411011,0.0,16.454887,1809.94,0.0,0.0,39.8421497,0.11903145498601328,21.045717239379883,0.0,18.0,0.0,0.0,1500.0,0.0,0.000433098717887319,16.415869,0.6499606134426884,-0.7404845356941223,500.0,1500.0,-0.07042321562767029,1500.0,0.0,0.0,-0.04171203449368477,0.0,0.0,-9.144804954528809,0.0,1.0670949220657349,-0.000341012706135305,0.0,0.0,0.0,0.0,-0.764336109161377,,,,,,,
9.200726999999999,0.0,0.02129301687433082,0.0,0.0,2.732269048690796,-72.0,-105.212628,0.0012684898947115868,1.5400623083114624,124.0,0.0,0.0,-0.15766432881355286,0.0,16.554916,1809.91,0.0,0.0,39.842152,0.11780972450961724,21.043622970581055,0.0,18.0,0.0,0.0,1500.0,0.0,-0.0012112558581128018,16.536616,0.6541494036474748,-0.8263378143310547,496.0,1500.0,-0.13211806118488312,1500.0,0.0,0.0,-0.11675190180540085,0.0,0.0,-8.083024978637695,0.0,0.6844578981399536,0.000489151464391741,0.0,0.0,0.0,0.0,-0.7684448957443237,,,,,,,
9.300683000000001,0.0,0.020594885173533087,0.0,0.0,2.7485148906707764,-78.0,-105.212628,0.00029045884112581364,1.5664328336715698,128.0,0.0,0.0,-0.5210800170898438,0.0,16.654872,1809.91,0.0,0.0,39.842152,0.11135200627723822,21.04676628112793,0.0,18.0,0.0,0.0,1500.0,0.0,-0.0019233141333092096,16.615828999999998,0.6562437987498679,-0.5795096158981323,489.0,1500.0,-0.14554950594902039,1500.0,0.0,0.0,-0.15977665781974792,0.0,0.0,-9.371932029724121,0.0,0.41600510478019714,0.0007253086719540155,0.0,0.0,0.0,0.0,-0.7657055258750916,,,,,,,
9.400709999999998,0.0,0.027925268031909273,0.0,0.0,2.769240140914917,-75.0,-105.21262739999999,0.0005157880817232936,1.5775765180587769,131.0,0.0,0.0,-0.9116256237030029,0.0,16.754898999999998,1809.9,0.0,0.0,39.8421543,0.10349802464326374,21.041526794433594,0.0,18.0,0.0,0.0,1500.0,0.0,-0.0004520864192774873,16.73585,0.6551966011986713,-0.5902413129806519,490.0,1500.0,-0.16671603918075562,1500.0,0.0,0.0,-0.26841387152671814,0.0,0.0,-8.406575202941895,0.0,0.35266852378845215,0.0011673113594575675,0.0,0.0,0.0,0.0,-0.7707278728485107,,,,,,,
9.500696,0.0,0.028972465583105872,0.0,0.0,2.7804300785064697,-76.0,-105.21262739999999,-0.00013376623831344925,1.6190094947814941,131.0,0.0,0.0,-0.47329992055892944,0.0,16.854885,1809.9,0.0,0.0,39.8421543,0.10402162341886204,21.041526794433594,0.0,18.0,0.0,0.0,1500.0,0.0,0.0006723239247361419,16.815459999999998,0.6541494036474748,-0.8048744797706604,493.0,1500.0,-0.22825220227241516,1500.0,0.0,0.0,-0.2817842662334442,0.0,0.0,-9.195716857910156,0.0,0.19488026201725006,-0.0006499723570052162,0.0,0.0,0.0,0.0,-0.7657055258750916,,,,,,,
9.600716,0.0,0.02652900463031381,0.0,0.0,2.798336982727051,-80.0,-105.2126265,0.00038178725636851124,1.6288195848464966,133.0,0.0,0.0,-0.8704657554626465,0.0,16.954905,1809.89,0.0,0.0,39.8421565,0.10995574287564276,21.040481567382812,0.0,18.0,0.0,0.0,1500.0,0.0,-0.0007115807137167537,16.935831999999998,0.6522295414702809,-0.7243870496749878,494.0,1500.0,-0.2818067967891693,1500.0,0.0,0.0,-0.3221893310546875,0.0,0.0,-9.637455940246582,0.0,0.4685876965522766,-0.001166909804699454,0.0,0.0,0.0,0.0,-0.7629661560058594,,,,,,,
9.70058,0.0,0.02757620218151041,0.0,0.0,2.8074331283569336,-77.0,-105.2126265,0.0019852431616637226,1.5346962213516235,136.0,0.0,0.0,-1.2724089622497559,0.0,17.054769,1809.89,0.0,0.0,39.8421565,0.1069886831472524,21.0394344329834,0.0,18.0,0.0,0.0,1500.0,0.0,-0.0008729024769712793,17.015428,0.6536258048718765,-0.7136553525924683,499.0,1500.0,-0.2925466299057007,1500.0,0.0,0.0,-0.43002793192863464,0.0,0.0,-7.4869384765625,0.0,0.5698559880256653,0.0012962324130924839,0.0,0.0,0.0,0.0,-0.764336109161377,,,,,,,
9.800617999999998,0.0,0.028448866807507574,0.0,0.0,2.8193774223327637,-78.0,-105.2126255,0.0005467912494471334,1.5654429197311401,137.0,0.0,0.0,0.9077465534210205,0.0,17.154806999999998,1809.88,0.0,0.0,39.8421587,0.09686577348568529,21.04269027709961,0.0,18.0,0.0,0.0,1500.0,0.0,-0.001006744526950525,17.135792,0.6604325889546544,-0.5634121298789978,493.0,1500.0,-0.33576831221580505,1500.0,0.0,0.0,-0.4470699429512024,0.0,0.0,-10.119405746459961,0.0,-0.5257366895675659,0.0005270753399463967,0.0,0.0,0.0,0.0,-0.7676844596862793,,,,,,,
9.900608,0.0,0.026878070480712675,0.0,0.0,2.822958469390869,-82.0,-105.2126255,0.00013278891150862683,1.6103848218917847,139.0,0.0,0.0,0.06162510812282562,0.0,17.254797,1809.88,0.0,0.0,39.8421587,0.09546951008408983,21.04257583618164,0.0,18.0,0.0,0.0,1500.0,0.0,-0.0002556924304255764,17.215426,0.6623524511318482,-0.8102403283119202,492.0,1500.0,-0.34823375940322876,1500.0,0.0,0.0,-0.45058518648147583,0.0,0.0,-9.30810260772705,0.0,0.21890833973884583,-0.0009929130591318327,0.0,0.0,0.0,0.0,-0.764336109161377,,,,,,,
10.000715999999999,0.0,0.025656340004316644,0.0,0.0,2.832911968231201,-82.0,-105.2126246,0.0003418314201110442,1.5917351245880127,138.0,0.0,0.0,0.46934035420417786,0.0,17.354905,1809.81,0.0,0.0,39.842161,0.09948376736367678,21.043622970581055,0.0,18.0,0.0,0.0,1500.0,0.0,0.0021078536418347497,17.335848,0.6625269840570475,-0.8746302723884583,495.0,1500.0,-0.33436888456344604,1500.0,0.0,0.0,-0.5039730668067932,0.0,0.0,-9.963064193725586,0.0,0.34664443135261536,0.00040066198797366937,0.0,0.0,0.0,0.0,-0.7670754790306091,,,,,,,
10.100702,0.0,0.027052603405912107,0.0,0.0,2.8391973972320557,-84.0,-105.2126246,-0.001006487898610131,1.5973821878433228,129.0,0.0,0.0,-0.3694743812084198,0.0,17.454891,1809.81,0.0,0.0,39.842161,0.1096066770252439,21.04676628112793,0.0,18.0,0.0,0.0,1500.0,0.0,0.002734358517198175,17.415862999999998,0.6632251157578453,-0.8960936069488525,500.0,1500.0,-0.3500370979309082,1500.0,0.0,0.0,-0.5116247534751892,0.0,0.0,-8.923909187316895,0.0,0.9748774766921997,-0.0026067858189022736,0.0,0.0,0.0,0.0,-0.7657055258750916,,,,,,,
10.200688999999999,0.0,0.022514747350726852,0.0,0.0,2.8512816429138184,-83.0,-105.2126237,0.0007416284658976695,1.565703272819519,124.0,0.0,0.0,-1.5249698162078857,0.0,17.554878,1809.75,0.0,0.0,39.842163299999996,0.11850785621041497,21.043855667114258,0.0,18.0,0.0,0.0,1500.0,0.0,0.00031085695809084866,17.536604,0.6567673975254662,-0.7565820217132568,498.0,1500.0,-0.31768882274627686,1500.0,0.0,0.0,-0.5242279171943665,0.0,0.0,-8.883525848388672,0.0,0.575461208820343,0.0017431459540416824,0.0,0.0,0.0,0.0,-0.7692059278488159,,,,,,,
10.300658999999998,0.0,0.019896753472735357,0.0,0.0,2.8557353019714355,-83.0,-105.2126237,-0.0011028402346113571,1.5023294687271118,121.0,0.0,0.0,1.1627099514007568,0.0,17.654847999999998,1809.75,0.0,0.0,39.842163299999996,0.1153662635568252,21.04676628112793,0.0,18.0,0.0,0.0,1500.0,0.0,0.00014250346777793638,17.615828999999998,0.6564183316750674,-0.8370694518089294,502.0,1500.0,-0.3529590964317322,1500.0,0.0,0.0,-0.5084412097930908,0.0,0.0,-9.57785415649414,0.0,0.932959794998169,0.0003213030384183731,0.0,0.0,0.0,0.0,-0.764336109161377,,,,,,,
10.40077,0.0,0.020071286397934793,0.0,0.0,2.8554470539093018,-82.0,-105.2126227,-0.0014379119328988864,1.5380240678787231,120.0,0.0,0.0,-0.14206953346729279,0.0,17.754959,1809.7,0.0,0.0,39.842165699999995,0.10559241974565693,21.040481567382812,0.0,18.0,0.0,0.0,1500.0,0.0,-0.001313073005872357,17.735872999999998,0.6473426195646969,-0.6438995599746704,497.0,1500.0,-0.29829496145248413,1500.0,0.0,0.0,-0.4809407889842987,0.0,0.0,-10.420180320739746,0.0,0.3131159842014313,0.0008601753497559802,0.0,0.0,0.0,0.0,-0.7725538015365601,,,,,,,
10.500668,0.0,0.020071286397934793,0.0,0.0,2.8526787757873535,-79.0,-105.2126227,-0.0023893397561946046,1.4901474714279175,123.0,0.0,0.0,-0.3194088637828827,0.0,17.854857,1809.7,0.0,0.0,39.842165699999995,0.10000736613927509,21.045717239379883,0.0,18.0,0.0,0.0,1500.0,0.0,1.5862160659168608e-05,17.815561,0.6382669074543263,-0.6546312570571899,494.0,1500.0,-0.30925124883651733,1500.0,0.0,0.0,-0.4548183083534241,0.0,0.0,-9.02926254272461,0.0,0.5529277324676514,-0.0017548782969630799,0.0,0.0,0.0,0.0,-0.7657055258750916,,,,,,,
10.600662999999999,0.0,0.019547687622336492,0.0,0.0,2.839409351348877,-79.0,-105.21262159999999,-0.001048525402275814,1.4798368215560913,126.0,0.0,0.0,-0.4015454351902008,0.0,17.954852,1809.63,0.0,0.0,39.842168,0.09704030641088474,21.04618263244629,0.0,18.0,0.0,0.0,1500.0,0.0,-0.00017561138450635384,17.935854,0.6243042734383717,-0.45072972774505615,495.0,1500.0,-0.2648783028125763,1500.0,0.0,0.0,-0.397197961807251,0.0,0.0,-10.455342292785645,0.0,0.6978613138198853,0.0019585937356716536,0.0,0.0,0.0,0.0,-0.7631181478500366,,,,,,,
10.700681999999999,0.0,0.019024088846738195,0.0,0.0,2.820930242538452,-75.0,-105.21262159999999,-0.0010312335805417135,1.4335123300552368,130.0,0.0,0.0,0.3284361660480499,0.0,18.054871,1809.63,0.0,0.0,39.842168,0.09058258817850572,21.04676628112793,0.0,18.0,0.0,0.0,1500.0,0.0,-0.0015590982460651013,18.015456999999998,0.619591884457987,-0.8048744797706604,495.0,1500.0,-0.30738914012908936,1500.0,0.0,0.0,-0.3162863850593567,0.0,0.0,-9.276634216308594,0.0,0.6439883708953857,-0.002074030975842093,0.0,0.0,0.0,0.0,-0.7670754790306091,,,,,,,
10.800693999999998,0.0,0.01884955592153876,0.0,0.0,2.785778284072876,-72.0,-105.2126207,0.00043066660032589204,1.3801556825637817,132.0,0.0,0.0,-1.050398588180542,0.0,18.154882999999998,1809.6100000000001,0.0,0.0,39.8421705,0.07539822368615504,21.04676628112793,0.0,18.0,0.0,0.0,1500.0,0.0,-0.0015805979403438247,18.135873999999998,0.6161012259539984,-0.6117045879364014,497.0,1500.0,-0.2604864835739136,1500.0,0.0,0.0,-0.2900084853172302,0.0,0.0,-8.556169509887695,0.0,0.6047266721725464,-0.00030566044550825715,0.0,0.0,0.0,0.0,-0.7670754790306091,,,,,,,
10.900677,0.0,0.011519173063162575,0.0,0.0,2.7613534927368164,-74.0,-105.2126207,0.00029833002308737465,1.366752028465271,137.0,0.0,0.0,0.6912282109260559,0.0,18.254866,1809.6100000000001,0.0,0.0,39.8421705,0.06387905062299247,21.045717239379883,0.0,18.0,0.0,0.0,1500.0,0.0,0.00040505483838209277,18.21547,0.6173229564303944,-0.6707287430763245,492.0,1500.0,-0.2665131688117981,1500.0,0.0,0.0,-0.23726804554462433,0.0,0.0,-9.03818130493164,0.0,0.2883979082107544,0.0016020975045853852,0.0,0.0,0.0,0.0,-0.764336109161377,,,,,,,
11.000697999999998,0.0,0.013962634015954637,0.0,0.0,2.7187929153442383,-76.0,-105.21261969999999,-7.599519598114065e-06,1.3426049947738647,139.0,0.0,0.0,-0.2651171386241913,0.0,18.354886999999998,1809.5900000000001,0.0,0.0,39.842172999999995,0.06318091892219473,21.045019149780273,0.0,18.0,0.0,0.0,1500.0,0.0,0.0014352871327717746,18.335836999999998,0.6202900161587847,-0.552680492401123,495.0,1500.0,-0.2223016768693924,1500.0,0.0,0.0,-0.22079573571681976,0.0,0.0,-9.002153396606445,0.0,0.22134460508823395,-0.0009434462722923994,0.0,0.0,0.0,0.0,-0.7615966796875,,,,,,,
11.100671,0.0,0.014486232791552936,0.0,0.0,2.6881330013275146,-78.0,-105.21261969999999,-0.0005315642227994013,1.326378583908081,137.0,0.0,0.0,-0.9611630439758301,0.0,18.45486,1809.5900000000001,0.0,0.0,39.842172999999995,0.06719517620178168,21.04257583618164,0.0,18.0,0.0,0.0,1500.0,0.0,0.0024800942524201607,18.415847,0.6197664173831864,-0.7619478702545166,496.0,1500.0,-0.20563964545726776,1500.0,0.0,0.0,-0.2119077444076538,0.0,0.0,-8.666765213012695,0.0,0.8806154727935791,-0.0006364572045845518,0.0,0.0,0.0,0.0,-0.7725538015365601,,,,,,,
11.200705000000001,0.0,0.008552113334772215,0.0,0.0,2.638070821762085,-77.0,-105.2126186,-0.0008842899613374574,1.1799051761627197,132.0,0.0,0.0,1.640373706817627,0.0,18.554894,1809.55,0.0,0.0,39.842175499999996,0.06789330790257943,21.043622970581055,0.0,18.0,0.0,0.0,1500.0,0.0,7.176399090906891e-05,18.536565,0.613134166225608,-0.7029237151145935,501.0,1500.0,-0.19129404425621033,1500.0,0.0,0.0,-0.1721174567937851,0.0,0.0,-8.885579109191895,0.0,0.22453956305980682,0.0013474739471271027,0.0,0.0,0.0,0.0,-0.7684448957443237,,,,,,,
11.300676000000001,0.0,0.015184364492350668,0.0,0.0,2.600512742996216,-74.0,-105.2126186,-0.0012854841914176549,1.207471251487732,131.0,0.0,0.0,-1.4757261276245117,0.0,18.654865,1809.55,0.0,0.0,39.842175499999996,0.06335545184739416,21.04676628112793,0.0,18.0,0.0,0.0,1500.0,0.0,-0.0020057753794526906,18.615806,0.610341639422417,-0.5151196718215942,502.0,1500.0,-0.1613190621137619,1500.0,0.0,0.0,-0.14497365057468414,0.0,0.0,-9.423727035522461,0.0,0.24363404512405396,-0.0015812160069776696,0.0,0.0,0.0,0.0,-0.7684448957443237,,,,,,,
11.400664999999998,0.0,0.009948376736367679,0.0,0.0,2.541177749633789,-73.0,-105.2126176,-0.0010280297899481184,1.1592532396316528,133.0,0.0,0.0,-1.0346688032150269,0.0,18.754853999999998,1809.52,0.0,0.0,39.8421781,0.050265482457436686,21.04618263244629,0.0,18.0,0.0,0.0,1500.0,0.0,-0.0006591649441038431,18.735706999999998,0.6017895260876449,-0.6278020739555359,504.0,1500.0,-0.15265007317066193,1500.0,0.0,0.0,-0.09764858335256577,0.0,0.0,-8.682801246643066,0.0,0.18604621291160583,0.0002563019146066897,0.0,0.0,0.0,0.0,-0.7707278728485107,,,,,,,
11.500662999999998,0.0,0.013089969389957472,0.0,0.0,2.497271776199341,-72.0,-105.2126176,-0.0004238543759979766,1.101526141166687,127.0,0.0,0.0,-0.9727265238761902,0.0,18.854851999999998,1809.52,0.0,0.0,39.8421781,0.0481710873550435,21.04467010498047,0.0,18.0,0.0,0.0,1500.0,0.0,0.0014921376897780475,18.815424999999998,0.597426202957659,-1.019507646560669,506.0,1500.0,-0.14904797077178955,1500.0,0.0,0.0,-0.08957932144403458,0.0,0.0,-8.207503318786621,0.0,0.32976460456848145,9.884210066229896e-05,0.0,0.0,0.0,0.0,-0.7670754790306091,,,,,,,
11.600706999999998,0.0,0.010821041362364843,0.0,0.0,2.4376752376556396,-72.0,-105.2126167,0.00021580447356698732,1.0582882165908813,123.0,0.0,0.0,-0.26981067657470703,0.0,18.954895999999998,1809.52,0.0,0.0,39.8421808,0.05375614096142535,21.04781150817871,0.0,18.0,0.0,0.0,1500.0,0.0,6.788519975454663e-06,18.935855,0.5955063407804652,-0.6492654085159302,506.0,1500.0,-0.14714135229587555,1500.0,0.0,0.0,-0.010271072387695312,0.0,0.0,-8.290904998779297,0.0,1.0293474197387695,7.025482836385159e-05,0.0,0.0,0.0,0.0,-0.7670754790306091,,,,,,,
